{
"type": "FeatureCollection",
"name": "gotowe",
"crs": { "type": "name", "properties": { "name": "urn:ogc:def:crs:OGC:1.3:CRS84" } },
"features": [
{ "type": "Feature", "properties": { "Name": "PKP Siedlce Zachodnie", "description": "<br><div style=\"font-family:arial;font-size:10pt\">\n\n<u><b>Podstawowe informacje:<\/b><\/u>\n\n<ul>\n\n<li><b>...<\/b><\/li>\n\n<\/ul>\n\n<\/div>", "tessellate": "-1", "extrude": "0", "visibility": "0", "snippet": "" }, "geometry": { "type": "Point", "coordinates": [ 22.2353, 52.17356, 0.0 ] } },
{ "type": "Feature", "properties": { "Name": "PKP Sabinka", "description": "<br><div style=\"font-family:arial;font-size:10pt\">\n\n<u><b>Podstawowe informacje:<\/b><\/u>\n\n<ul>\n\n<li><b>...<\/b><\/li>\n\n<\/ul>\n\n<\/div>", "tessellate": "-1", "extrude": "0", "visibility": "0", "snippet": "" }, "geometry": { "type": "Point", "coordinates": [ 22.1723, 52.17287, 0.0 ] } },
{ "type": "Feature", "properties": { "Name": "PKP Kotuń", "description": "<br><div style=\"font-family:arial;font-size:10pt\">\n\n<u><b>Podstawowe informacje:<\/b><\/u>\n\n<ul>\n\n<li><b>...<\/b><\/li>\n\n<\/ul>\n\n<\/div>", "tessellate": "-1", "extrude": "0", "visibility": "0", "snippet": "" }, "geometry": { "type": "Point", "coordinates": [ 22.067698, 52.176277, 0.0 ] } },
{ "type": "Feature", "properties": { "Name": "PKP Sosnowe", "description": "<br><div style=\"font-family:arial;font-size:10pt\">\n\n<u><b>Podstawowe informacje:<\/b><\/u>\n\n<ul>\n\n<li><b>...<\/b><\/li>\n\n<\/ul>\n\n<\/div>", "tessellate": "-1", "extrude": "0", "visibility": "0", "snippet": "" }, "geometry": { "type": "Point", "coordinates": [ 21.94056, 52.17579, 0.0 ] } },
{ "type": "Feature", "properties": { "Name": "PKP Mrozy", "description": "<br><div style=\"font-family:arial;font-size:10pt\">\n\n<u><b>Podstawowe informacje:<\/b><\/u>\n\n<ul>\n\n<li><b>...<\/b><\/li>\n\n<\/ul>\n\n<\/div>", "tessellate": "-1", "extrude": "0", "visibility": "0", "snippet": "" }, "geometry": { "type": "Point", "coordinates": [ 21.80254, 52.16463, 0.0 ] } },
{ "type": "Feature", "properties": { "Name": "PKP Cegłów", "description": "<br><div style=\"font-family:arial;font-size:10pt\">\n\n<u><b>Podstawowe informacje:<\/b><\/u>\n\n<ul>\n\n<li><b>...<\/b><\/li>\n\n<\/ul>\n\n<\/div>", "tessellate": "-1", "extrude": "0", "visibility": "0", "snippet": "" }, "geometry": { "type": "Point", "coordinates": [ 21.737208, 52.14828, 0.0 ] } },
{ "type": "Feature", "properties": { "Name": "PKP Mienia", "description": "<br><div style=\"font-family:arial;font-size:10pt\">\n\n<u><b>Podstawowe informacje:<\/b><\/u>\n\n<ul>\n\n<li><b>...<\/b><\/li>\n\n<\/ul>\n\n<\/div>", "tessellate": "-1", "extrude": "0", "visibility": "0", "snippet": "" }, "geometry": { "type": "Point", "coordinates": [ 21.687889, 52.149362, 0.0 ] } },
{ "type": "Feature", "properties": { "Name": "PKP Mińsk Mazowiecki Anielina", "description": "<br><div style=\"font-family:arial;font-size:10pt\">\n\n<u><b>Podstawowe informacje:<\/b><\/u>\n\n<ul>\n\n<li><b>...<\/b><\/li>\n\n<\/ul>\n\n<\/div>", "tessellate": "-1", "extrude": "0", "visibility": "0", "snippet": "" }, "geometry": { "type": "Point", "coordinates": [ 21.58811, 52.167051, 0.0 ] } },
{ "type": "Feature", "properties": { "Name": "PKP Mińsk Mazowiecki", "description": "<br><div style=\"font-family:arial;font-size:10pt\">\n\n<u><b>Podstawowe informacje:<\/b><\/u>\n\n<ul>\n\n<li><b>...<\/b><\/li>\n\n<\/ul>\n\n<\/div>", "tessellate": "-1", "extrude": "0", "visibility": "0" }, "geometry": { "type": "Point", "coordinates": [ 21.552471, 52.175774, 0.0 ] } },
{ "type": "Feature", "properties": { "Name": "PKP Stojadła", "description": "<br><div style=\"font-family:arial;font-size:10pt\">\n\n<u><b>Podstawowe informacje:<\/b><\/u>\n\n<ul>\n\n<li><b>...<\/b><\/li>\n\n<\/ul>\n\n<\/div>", "tessellate": "-1", "extrude": "0", "visibility": "0" }, "geometry": { "type": "Point", "coordinates": [ 21.526295, 52.179089, 0.0 ] } },
{ "type": "Feature", "properties": { "Name": "PKP Wrzosów", "description": "<br><div style=\"font-family:arial;font-size:10pt\">\n\n<u><b>Podstawowe informacje:<\/b><\/u>\n\n<ul>\n\n<li><b>...<\/b><\/li>\n\n<\/ul>\n\n<\/div>", "tessellate": "-1", "extrude": "0", "visibility": "0" }, "geometry": { "type": "Point", "coordinates": [ 21.48488, 52.184143, 0.0 ] } },
{ "type": "Feature", "properties": { "Name": "PKP Nowe Dębe Wielkie", "description": "<br><div style=\"font-family:arial;font-size:10pt\">\n\n<u><b>Podstawowe informacje:<\/b><\/u>\n\n<ul>\n\n<li><b>...<\/b><\/li>\n\n<\/ul>\n\n<\/div>", "tessellate": "-1", "extrude": "0", "visibility": "0" }, "geometry": { "type": "Point", "coordinates": [ 21.43939, 52.193562, 0.0 ] } },
{ "type": "Feature", "properties": { "Name": "PKP Dębe Wielkie", "description": "<br><div style=\"font-family:arial;font-size:10pt\">\n\n<u><b>Podstawowe informacje:<\/b><\/u>\n\n<ul>\n\n<li><b>...<\/b><\/li>\n\n<\/ul>\n\n<\/div>", "tessellate": "-1", "extrude": "0", "visibility": "0" }, "geometry": { "type": "Point", "coordinates": [ 21.423038, 52.199188, 0.0 ] } },
{ "type": "Feature", "properties": { "Name": "PKP Cisie", "description": "<br><div style=\"font-family:arial;font-size:10pt\">\n\n<u><b>Podstawowe informacje:<\/b><\/u>\n\n<ul>\n\n<li><b>...<\/b><\/li>\n\n<\/ul>\n\n<\/div>", "tessellate": "-1", "extrude": "0", "visibility": "0" }, "geometry": { "type": "Point", "coordinates": [ 21.391369, 52.209789, 0.0 ] } },
{ "type": "Feature", "properties": { "Name": "PKP Halinów", "description": "<br><div style=\"font-family:arial;font-size:10pt\">\n\n<u><b>Podstawowe informacje:<\/b><\/u>\n\n<ul>\n\n<li><b>...<\/b><\/li>\n\n<\/ul>\n\n<\/div>", "tessellate": "-1", "extrude": "0", "visibility": "0" }, "geometry": { "type": "Point", "coordinates": [ 21.351887, 52.222725, 0.0 ] } },
{ "type": "Feature", "properties": { "Name": "PKP Sulejówek-Miłosna", "description": "<br><div style=\"font-family:arial;font-size:10pt\">\n\n<u><b>Podstawowe informacje:<\/b><\/u>\n\n<ul>\n\n<li><b>...<\/b><\/li>\n\n<\/ul>\n\n<\/div>", "tessellate": "-1", "extrude": "0", "visibility": "0", "snippet": "" }, "geometry": { "type": "Point", "coordinates": [ 21.298567, 52.24059, 0.0 ] } },
{ "type": "Feature", "properties": { "Name": "PKP Sulejówek", "description": "<br><div style=\"font-family:arial;font-size:10pt\">\n\n<u><b>Podstawowe informacje:<\/b><\/u>\n\n<ul>\n\n<li><b>...<\/b><\/li>\n\n<\/ul>\n\n<\/div>", "tessellate": "-1", "extrude": "0", "visibility": "0", "snippet": "" }, "geometry": { "type": "Point", "coordinates": [ 21.276894, 52.247868, 0.0 ] } },
{ "type": "Feature", "properties": { "Name": "PKP Warszawa Wola Grzybowska", "description": "<br><div style=\"font-family:arial;font-size:10pt\">\n\n<u><b>Podstawowe informacje:<\/b><\/u>\n\n<ul>\n\n<li><b>...<\/b><\/li>\n\n<\/ul>\n\n<\/div>", "tessellate": "-1", "extrude": "0", "visibility": "0", "snippet": "" }, "geometry": { "type": "Point", "coordinates": [ 21.250991, 52.252739, 0.0 ] } },
{ "type": "Feature", "properties": { "Name": "PKP Warszawa Wesoła", "description": "<br><div style=\"font-family:arial;font-size:10pt\">\n\n<u><b>Podstawowe informacje:<\/b><\/u>\n\n<ul>\n\n<li><b>...<\/b><\/li>\n\n<\/ul>\n\n<\/div>", "tessellate": "-1", "extrude": "0", "visibility": "0", "snippet": "" }, "geometry": { "type": "Point", "coordinates": [ 21.224443, 52.254079, 0.0 ] } }
]
}
