{
"type": "FeatureCollection",
"name": "LK1",
"crs": { "type": "name", "properties": { "name": "urn:ogc:def:crs:OGC:1.3:CRS84" } },
"features": [
{ "type": "Feature", "properties": { "Name": "PKP Skierniewice", "description": "<br><div style=\"font-family:arial;font-size:10pt\">\n\n<u><b>Podstawowe informacje:<\/b><\/u>\n\n<ul>\n\n<li><b>stacja kolejowa do modernizacji<\/b><\/li>\n\n<\/ul>\n\n<\/div>", "tessellate": "-1", "extrude": "0", "visibility": "0" }, "geometry": { "type": "Point", "coordinates": [ 20.15160383143391, 51.967770693042397, 0.0 ] } },
{ "type": "Feature", "properties": { "Name": "PKP Skierniewice-Rawka", "description": "<br><div style=\"font-family:arial;font-size:10pt\">\n\n<u><b>Podstawowe informacje:<\/b><\/u>\n\n<ul>\n\n<li><b>przystanek kolejowy do modernizacji<\/b><\/li>\n\n<\/ul>\n\n<\/div>", "tessellate": "-1", "extrude": "0", "visibility": "0" }, "geometry": { "type": "Point", "coordinates": [ 20.212355, 51.975628, 0.0 ] } },
{ "type": "Feature", "properties": { "Name": "PKP Radziwiłłów Mazowiecki", "description": "<br><div style=\"font-family:arial;font-size:10pt\">\n\n<u><b>Podstawowe informacje:<\/b><\/u>\n\n<ul>\n\n<li><b>przystanek kolejowy do modernizacji<\/b><\/li>\n\n<\/ul>\n\n<\/div>", "tessellate": "-1", "extrude": "0", "visibility": "0" }, "geometry": { "type": "Point", "coordinates": [ 20.292457, 52.000968, 0.0 ] } },
{ "type": "Feature", "properties": { "Name": "PKP Jesionka", "description": "<br><div style=\"font-family:arial;font-size:10pt\">\n\n<u><b>Podstawowe informacje:<\/b><\/u>\n\n<ul>\n\n<li><b>przystanek kolejowy do modernizacji<\/b><\/li>\n\n<\/ul>\n\n<\/div>", "tessellate": "-1", "extrude": "0", "visibility": "0" }, "geometry": { "type": "Point", "coordinates": [ 20.333935, 52.014538, 0.0 ] } },
{ "type": "Feature", "properties": { "Name": "PKP Sucha Żyrardowska", "description": "<br><div style=\"font-family:arial;font-size:10pt\">\n\n<u><b>Podstawowe informacje:<\/b><\/u>\n\n<ul>\n\n<li><b>przystanek kolejowy do modernizacji<\/b><\/li>\n\n<\/ul>\n\n<\/div>", "tessellate": "-1", "extrude": "0", "visibility": "0" }, "geometry": { "type": "Point", "coordinates": [ 20.358066, 52.022424, 0.0 ] } },
{ "type": "Feature", "properties": { "Name": "PKP Żyrardów", "description": "<br><div style=\"font-family:arial;font-size:10pt\">\n\n<u><b>Podstawowe informacje:<\/b><\/u>\n\n<ul>\n\n<li><b>przystanek kolejowy do modernizacji<\/b><\/li>\n\n<\/ul>\n\n<\/div>", "tessellate": "-1", "extrude": "0", "visibility": "0" }, "geometry": { "type": "Point", "coordinates": [ 20.447963, 52.05214, 0.0 ] } },
{ "type": "Feature", "properties": { "Name": "PKP Międzyborów", "description": "<br><div style=\"font-family:arial;font-size:10pt\">\n\n<u><b>Podstawowe informacje:<\/b><\/u>\n\n<ul>\n\n<li><b>przystanek kolejowy do modernizacji<\/b><\/li>\n\n<\/ul>\n\n<\/div>", "tessellate": "-1", "extrude": "0", "visibility": "0" }, "geometry": { "type": "Point", "coordinates": [ 20.48324, 52.063901, 0.0 ] } },
{ "type": "Feature", "properties": { "Name": "PKP Jaktorów", "description": "<br><div style=\"font-family:arial;font-size:10pt\">\n\n<u><b>Podstawowe informacje:<\/b><\/u>\n\n<ul>\n\n<li><b>przystanek kolejowy do modernizacji<\/b><\/li>\n\n<\/ul>\n\n<\/div>", "tessellate": "-1", "extrude": "0", "visibility": "0" }, "geometry": { "type": "Point", "coordinates": [ 20.551558, 52.086678, 0.0 ] } }
]
}
