{
"type": "FeatureCollection",
"name": "LK31",
"crs": { "type": "name", "properties": { "name": "urn:ogc:def:crs:OGC:1.3:CRS84" } },
"features": [
{ "type": "Feature", "properties": { "Name": "PKP Mordy", "description": "<br><div style=\"font-family:arial;font-size:10pt\">\n\n<u><b>Podstawowe informacje:<\/b><\/u>\n\n<ul>\n\n<li><b>...<\/b><\/li>\n\n<\/ul>\n\n<\/div>", "tessellate": "-1", "extrude": "0", "visibility": "0", "snippet": "" }, "geometry": { "type": "Point", "coordinates": [ 22.49671, 52.19619, 0.0 ] } },
{ "type": "Feature", "properties": { "Name": "PKP Mordy Miasto", "description": "<br><div style=\"font-family:arial;font-size:10pt\">\n\n<u><b>Podstawowe informacje:<\/b><\/u>\n\n<ul>\n\n<li><b>...<\/b><\/li>\n\n<\/ul>\n\n<\/div>", "tessellate": "-1", "extrude": "0", "visibility": "0", "snippet": "" }, "geometry": { "type": "Point", "coordinates": [ 22.52048, 52.20325, 0.0 ] } },
{ "type": "Feature", "properties": { "Name": "PKP Niemojki", "description": "<br><div style=\"font-family:arial;font-size:10pt\">\n\n<u><b>Podstawowe informacje:<\/b><\/u>\n\n<ul>\n\n<li><b>...<\/b><\/li>\n\n<\/ul>\n\n<\/div>", "tessellate": "-1", "extrude": "0", "visibility": "0", "snippet": "" }, "geometry": { "type": "Point", "coordinates": [ 22.70003, 52.25807, 0.0 ] } },
{ "type": "Feature", "properties": { "Name": "PKP Platerów", "description": "<br><div style=\"font-family:arial;font-size:10pt\">\n\n<u><b>Podstawowe informacje:<\/b><\/u>\n\n<ul>\n\n<li><b>...<\/b><\/li>\n\n<\/ul>\n\n<\/div>", "tessellate": "-1", "extrude": "0", "visibility": "0", "snippet": "" }, "geometry": { "type": "Point", "coordinates": [ 22.82111, 52.30136, 0.0 ] } },
{ "type": "Feature", "properties": { "Name": "PKP Sarnaki", "description": "<br><div style=\"font-family:arial;font-size:10pt\">\n\n<u><b>Podstawowe informacje:<\/b><\/u>\n\n<ul>\n\n<li><b>...<\/b><\/li>\n\n<\/ul>\n\n<\/div>", "tessellate": "-1", "extrude": "0", "visibility": "0", "snippet": "" }, "geometry": { "type": "Point", "coordinates": [ 22.87899, 52.3249, 0.0 ] } },
{ "type": "Feature", "properties": { "Name": "PKP Fronołów", "description": "<br><div style=\"font-family:arial;font-size:10pt\">\n\n<u><b>Podstawowe informacje:<\/b><\/u>\n\n<ul>\n\n<li><b>...<\/b><\/li>\n\n<\/ul>\n\n<\/div>", "tessellate": "-1", "extrude": "0", "visibility": "0", "snippet": "" }, "geometry": { "type": "Point", "coordinates": [ 22.92954, 52.36231, 0.0 ] } }
]
}
