{
"type": "FeatureCollection",
"name": "WKD",
"crs": { "type": "name", "properties": { "name": "urn:ogc:def:crs:OGC:1.3:CRS84" } },
"features": [
{ "type": "Feature", "properties": { "Name": "WKD Warszawa Śródmieście", "description": "<br><div style=\"font-family:arial;font-size:10pt\">\n\n<u><b>Podstawowe informacje:<\/b><\/u>\n\n<ul>\n\n<li><b>przystanek kolejowy do modernizacji<\/b><\/li>\n\n<\/ul>\n\n<\/div>", "tessellate": "-1", "extrude": "0", "visibility": "0", "snippet": "" }, "geometry": { "type": "Point", "coordinates": [ 21.00099, 52.227782, 0.0 ] } },
{ "type": "Feature", "properties": { "Name": "WKD Malichy", "description": "<br><div style=\"font-family:arial;font-size:10pt\">\n\n<u><b>Podstawowe informacje:<\/b><\/u>\n\n<ul>\n\n<li><b>...<\/b><\/li>\n\n<\/ul>\n\n<\/div>", "tessellate": "-1", "extrude": "0", "visibility": "0" }, "geometry": { "type": "Point", "coordinates": [ 20.841129, 52.169312, 0.0 ] } },
{ "type": "Feature", "properties": { "Name": "WKD Michałowice", "description": "<br><div style=\"font-family:arial;font-size:10pt\">\n\n<u><b>Podstawowe informacje:<\/b><\/u>\n\n<ul>\n\n<li><b>...<\/b><\/li>\n\n<\/ul>\n\n<\/div>", "tessellate": "-1", "extrude": "0", "visibility": "0" }, "geometry": { "type": "Point", "coordinates": [ 20.881233, 52.175274, 0.0 ] } },
{ "type": "Feature", "properties": { "Name": "WKD Opacz", "description": "<br><div style=\"font-family:arial;font-size:10pt\">\n\n<u><b>Podstawowe informacje:<\/b><\/u>\n\n<ul>\n\n<li><b>...<\/b><\/li>\n\n<\/ul>\n\n<\/div>", "tessellate": "-1", "extrude": "0", "visibility": "0" }, "geometry": { "type": "Point", "coordinates": [ 20.904493, 52.181301, 0.0 ] } },
{ "type": "Feature", "properties": { "Name": "WKD Warszawa Salomea", "description": "<br><div style=\"font-family:arial;font-size:10pt\">\n\n<u><b>Podstawowe informacje:<\/b><\/u>\n\n<ul>\n\n<li><b>...<\/b><\/li>\n\n<\/ul>\n\n<\/div>", "tessellate": "-1", "extrude": "0", "visibility": "0" }, "geometry": { "type": "Point", "coordinates": [ 20.925007, 52.186722, 0.0 ] } },
{ "type": "Feature", "properties": { "Name": "WKD Warszawa Raków", "description": "<br><div style=\"font-family:arial;font-size:10pt\">\n\n<u><b>Podstawowe informacje:<\/b><\/u>\n\n<ul>\n\n<li><b>...<\/b><\/li>\n\n<\/ul>\n\n<\/div>", "tessellate": "-1", "extrude": "0", "visibility": "0" }, "geometry": { "type": "Point", "coordinates": [ 20.935822, 52.194378, 0.0 ] } },
{ "type": "Feature", "properties": { "Name": "WKD Aleje Jerozolimskie", "description": "<br><div style=\"font-family:arial;font-size:10pt\">\n\n<u><b>Podstawowe informacje:<\/b><\/u>\n\n<ul>\n\n<li><b>przystanek kolejowy po modernizacji<\/b><\/li>\n\n<\/ul>\n\n<\/div>", "altitudeMode": "clampToSeaFloor", "tessellate": "-1", "extrude": "0", "visibility": "0" }, "geometry": { "type": "Point", "coordinates": [ 20.942144296534369, 52.205220023304413, 0.0 ] } },
{ "type": "Feature", "properties": { "Name": "WKD Warszawa Zachodnia", "description": "<br><div style=\"font-family:arial;font-size:10pt\">\n\n<u><b>Podstawowe informacje:<\/b><\/u>\n\n<ul>\n\n<li><b>przystanek kolejowy do modernizacji<\/b><\/li>\n\n<\/ul>\n\n<\/div>", "altitudeMode": "clampToSeaFloor", "tessellate": "-1", "extrude": "0", "visibility": "0" }, "geometry": { "type": "Point", "coordinates": [ 20.96560657008116, 52.219566390897633, 0.0 ] } },
{ "type": "Feature", "properties": { "Name": "WKD Warszawa Ochota", "description": "<br><div style=\"font-family:arial;font-size:10pt\">\n\n<u><b>Podstawowe informacje:<\/b><\/u>\n\n<ul>\n\n<li><b>przystanek kolejowy do modernizacji<\/b><\/li>\n\n<\/ul>\n\n<\/div>", "altitudeMode": "clampToSeaFloor", "tessellate": "-1", "extrude": "0", "visibility": "0" }, "geometry": { "type": "Point", "coordinates": [ 20.991187999720921, 52.225785663562057, 0.0 ] } },
{ "type": "Feature", "properties": { "Name": "WKD Warszawa Reduta Ordona", "description": "<br><div style=\"font-family:arial;font-size:10pt\">\n\n<u><b>Podstawowe informacje:<\/b><\/u>\n\n<ul>\n\n<li><b>...<\/b><\/li>\n\n<\/ul>\n\n<\/div>", "tessellate": "-1", "extrude": "0", "visibility": "0" }, "geometry": { "type": "Point", "coordinates": [ 20.947838, 52.214287, 0.0 ] } },
{ "type": "Feature", "properties": { "Name": "WKD Reguły", "description": "<br><div style=\"font-family:arial;font-size:10pt\">\n\n<u><b>Podstawowe informacje:<\/b><\/u>\n\n<ul>\n\n<li><b>...<\/b><\/li>\n\n<\/ul>\n\n<\/div>", "tessellate": "-1", "extrude": "0", "visibility": "0" }, "geometry": { "type": "Point", "coordinates": [ 20.859648, 52.170509, 0.0 ] } },
{ "type": "Feature", "properties": { "Name": "WKD Tworki", "description": "<br><div style=\"font-family:arial;font-size:10pt\">\n\n<u><b>Podstawowe informacje:<\/b><\/u>\n\n<ul>\n\n<li><b>...<\/b><\/li>\n\n<\/ul>\n\n<\/div>", "tessellate": "-1", "extrude": "0", "visibility": "0" }, "geometry": { "type": "Point", "coordinates": [ 20.823339, 52.169235, 0.0 ] } },
{ "type": "Feature", "properties": { "Name": "WKD Grodzisk Mazowiecki Radońska", "description": "<br><div style=\"font-family:arial;font-size:10pt\">\n\n<u><b>Podstawowe informacje:<\/b><\/u>\n\n<ul>\n\n<li><b>...<\/b><\/li>\n\n<\/ul>\n\n<\/div>", "tessellate": "-1", "extrude": "0", "visibility": "0", "snippet": "" }, "geometry": { "type": "Point", "coordinates": [ 20.62805, 52.100509, 0.0 ] } },
{ "type": "Feature", "properties": { "Name": "WKD Grodzisk Mazowiecki Jordanowice", "description": "<br><div style=\"font-family:arial;font-size:10pt\">\n\n<u><b>Podstawowe informacje:<\/b><\/u>\n\n<ul>\n\n<li><b>...<\/b><\/li>\n\n<\/ul>\n\n<\/div>", "tessellate": "-1", "extrude": "0", "visibility": "0" }, "geometry": { "type": "Point", "coordinates": [ 20.636234, 52.103104, 0.0 ] } },
{ "type": "Feature", "properties": { "Name": "WKD Grodzisk Mazowiecki Piaskowa", "description": "<br><div style=\"font-family:arial;font-size:10pt\">\n\n<u><b>Podstawowe informacje:<\/b><\/u>\n\n<ul>\n\n<li><b>...<\/b><\/li>\n\n<\/ul>\n\n<\/div>", "tessellate": "-1", "extrude": "0", "visibility": "0" }, "geometry": { "type": "Point", "coordinates": [ 20.650864, 52.102711, 0.0 ] } },
{ "type": "Feature", "properties": { "Name": "WKD Grodzisk Mazowiecki Okrężna", "description": "<br><div style=\"font-family:arial;font-size:10pt\">\n\n<u><b>Podstawowe informacje:<\/b><\/u>\n\n<ul>\n\n<li><b>...<\/b><\/li>\n\n<\/ul>\n\n<\/div>", "tessellate": "-1", "extrude": "0", "visibility": "0" }, "geometry": { "type": "Point", "coordinates": [ 20.659705006333741, 52.100741431937777, 0.0 ] } },
{ "type": "Feature", "properties": { "Name": "WKD Brzózki", "description": "<br><div style=\"font-family:arial;font-size:10pt\">\n\n<u><b>Podstawowe informacje:<\/b><\/u>\n\n<ul>\n\n<li><b>...<\/b><\/li>\n\n<\/ul>\n\n<\/div>", "tessellate": "-1", "extrude": "0", "visibility": "0" }, "geometry": { "type": "Point", "coordinates": [ 20.677773, 52.104832, 0.0 ] } },
{ "type": "Feature", "properties": { "Name": "WKD Kazimierówka", "description": "<br><div style=\"font-family:arial;font-size:10pt\">\n\n<u><b>Podstawowe informacje:<\/b><\/u>\n\n<ul>\n\n<li><b>...<\/b><\/li>\n\n<\/ul>\n\n<\/div>", "tessellate": "-1", "extrude": "0", "visibility": "0" }, "geometry": { "type": "Point", "coordinates": [ 20.698112, 52.111076, 0.0 ] } },
{ "type": "Feature", "properties": { "Name": "WKD Podkowa Leśna Zachodnia", "description": "<br><div style=\"font-family:arial;font-size:10pt\">\n\n<u><b>Podstawowe informacje:<\/b><\/u>\n\n<ul>\n\n<li><b>...<\/b><\/li>\n\n<\/ul>\n\n<\/div>", "tessellate": "-1", "extrude": "0", "visibility": "0" }, "geometry": { "type": "Point", "coordinates": [ 20.712833, 52.121052, 0.0 ] } },
{ "type": "Feature", "properties": { "Name": "WKD Polesie", "description": "<br><div style=\"font-family:arial;font-size:10pt\">\n\n<u><b>Podstawowe informacje:<\/b><\/u>\n\n<ul>\n\n<li><b>...<\/b><\/li>\n\n<\/ul>\n\n<\/div>", "tessellate": "-1", "extrude": "0", "visibility": "0" }, "geometry": { "type": "Point", "coordinates": [ 20.697985, 52.121841, 0.0 ] } },
{ "type": "Feature", "properties": { "Name": "WKD Milanówek Grudów", "description": "<br><div style=\"font-family:arial;font-size:10pt\">\n\n<u><b>Podstawowe informacje:<\/b><\/u>\n\n<ul>\n\n<li><b>...<\/b><\/li>\n\n<\/ul>\n\n<\/div>", "tessellate": "-1", "extrude": "0", "visibility": "0" }, "geometry": { "type": "Point", "coordinates": [ 20.682417, 52.122257, 0.0 ] } },
{ "type": "Feature", "properties": { "Name": "WKD Podkowa Leśna Głółwna", "description": "<br><div style=\"font-family:arial;font-size:10pt\">\n\n<u><b>Podstawowe informacje:<\/b><\/u>\n\n<ul>\n\n<li><b>...<\/b><\/li>\n\n<\/ul>\n\n<\/div>", "tessellate": "-1", "extrude": "0", "visibility": "0", "snippet": "" }, "geometry": { "type": "Point", "coordinates": [ 20.725483, 52.122419, 0.0 ] } },
{ "type": "Feature", "properties": { "Name": "WKD Podkowa Leśna Wschodnia", "description": "<br><div style=\"font-family:arial;font-size:10pt\">\n\n<u><b>Podstawowe informacje:<\/b><\/u>\n\n<ul>\n\n<li><b>...<\/b><\/li>\n\n<\/ul>\n\n<\/div>", "tessellate": "-1", "extrude": "0", "visibility": "0" }, "geometry": { "type": "Point", "coordinates": [ 20.739698, 52.123978, 0.0 ] } },
{ "type": "Feature", "properties": { "Name": "WKD Otrębusy", "description": "<br><div style=\"font-family:arial;font-size:10pt\">\n\n<u><b>Podstawowe informacje:<\/b><\/u>\n\n<ul>\n\n<li><b>...<\/b><\/li>\n\n<\/ul>\n\n<\/div>", "tessellate": "-1", "extrude": "0", "visibility": "0" }, "geometry": { "type": "Point", "coordinates": [ 20.761372, 52.126354, 0.0 ] } },
{ "type": "Feature", "properties": { "Name": "WKD Kanie Helenowskie", "description": "<br><div style=\"font-family:arial;font-size:10pt\">\n\n<u><b>Podstawowe informacje:<\/b><\/u>\n\n<ul>\n\n<li><b>...<\/b><\/li>\n\n<\/ul>\n\n<\/div>", "tessellate": "-1", "extrude": "0", "visibility": "0" }, "geometry": { "type": "Point", "coordinates": [ 20.77446, 52.131828, 0.0 ] } },
{ "type": "Feature", "properties": { "Name": "WKD Nowa Wieś Warszawska", "description": "<br><div style=\"font-family:arial;font-size:10pt\">\n\n<u><b>Podstawowe informacje:<\/b><\/u>\n\n<ul>\n\n<li><b>...<\/b><\/li>\n\n<\/ul>\n\n<\/div>", "tessellate": "-1", "extrude": "0", "visibility": "0" }, "geometry": { "type": "Point", "coordinates": [ 20.795918, 52.140415, 0.0 ] } },
{ "type": "Feature", "properties": { "Name": "WKD Komorów", "description": "<br><div style=\"font-family:arial;font-size:10pt\">\n\n<u><b>Podstawowe informacje:<\/b><\/u>\n\n<ul>\n\n<li><b>...<\/b><\/li>\n\n<\/ul>\n\n<\/div>", "tessellate": "-1", "extrude": "0", "visibility": "0", "snippet": "" }, "geometry": { "type": "Point", "coordinates": [ 20.811417, 52.148288, 0.0 ] } },
{ "type": "Feature", "properties": { "Name": "WKD Pruszków", "description": "<br><div style=\"font-family:arial;font-size:10pt\">\n\n<u><b>Podstawowe informacje:<\/b><\/u>\n\n<ul>\n\n<li><b>...<\/b><\/li>\n\n<\/ul>\n\n<\/div>", "tessellate": "-1", "extrude": "0", "visibility": "0" }, "geometry": { "type": "Point", "coordinates": [ 20.816259, 52.16127, 0.0 ] } }
]
}
